City_ID,City,Lat,Lng,Max Temp,Humidity,Cloudiness,Wind Speed,Country,Date
0,kenora,49.8167,-94.4337,20.54,83,100,3.6,CA,Mon Jul 22 18:36:52 2024
1,edinburgh of the seven seas,-37.0676,-12.3116,12.93,78,100,10.82,SH,Mon Jul 22 18:36:54 2024
2,papatowai,-46.5619,169.4708,9.5,74,94,3.99,NZ,Mon Jul 22 18:36:55 2024
3,ushuaia,-54.8,-68.3,3.81,75,40,10.8,AR,Mon Jul 22 18:36:57 2024
4,port-aux-francais,-49.35,70.2167,3.16,69,55,3.85,TF,Mon Jul 22 18:36:58 2024
5,albany,42.6001,-73.9662,23.57,59,100,1.37,US,Mon Jul 22 18:34:32 2024
6,bethel,41.3712,-73.414,24.77,83,100,1.89,US,Mon Jul 22 18:37:01 2024
7,port mathurin,-19.6833,63.4167,22.84,66,16,7.17,MU,Mon Jul 22 18:37:03 2024
8,sao joao da barra,-21.6403,-41.0511,21.05,88,0,2.38,BR,Mon Jul 22 18:37:04 2024
9,bakchar,57.0186,82.0711,13.68,94,100,1.57,RU,Mon Jul 22 18:37:06 2024
10,blackmans bay,-43.0167,147.3167,15.07,69,100,0.89,AU,Mon Jul 22 18:37:07 2024
11,williamsport,41.2412,-77.0011,22.28,94,100,0.0,US,Mon Jul 22 18:37:08 2024
12,petukhovo,55.0692,67.9019,17.14,96,100,2.29,RU,Mon Jul 22 18:37:10 2024
13,casablanca,33.5928,-7.6192,25.18,73,0,1.79,MA,Mon Jul 22 18:28:56 2024
14,bredasdorp,-34.5322,20.0403,7.12,87,0,1.87,ZA,Mon Jul 22 18:37:13 2024
15,ghadamis,30.1337,9.5007,33.55,17,0,3.4,LY,Mon Jul 22 18:37:14 2024
16,hamilton,39.1834,-84.5333,27.19,73,40,1.79,US,Mon Jul 22 18:37:16 2024
17,saipan,15.1355,145.701,32.39,70,20,5.66,MP,Mon Jul 22 18:37:17 2024
18,kudahuvadhoo,2.6708,72.8944,28.8,73,100,2.71,MV,Mon Jul 22 18:37:19 2024
19,grytviken,-54.2811,-36.5092,-1.14,94,73,4.67,GS,Mon Jul 22 18:37:20 2024
20,labytnangi,66.6572,66.4183,10.07,70,100,3.6,RU,Mon Jul 22 18:37:21 2024
21,raduzhny,62.0961,77.475,12.39,52,14,4.03,RU,Mon Jul 22 18:37:23 2024
22,praia da vitoria,38.7333,-27.0667,23.75,78,20,2.42,PT,Mon Jul 22 18:37:25 2024
23,chibougamau,49.9168,-74.3659,14.79,58,100,2.06,CA,Mon Jul 22 18:37:26 2024
24,kristiansund,63.1115,7.732,13.03,96,100,1.03,NO,Mon Jul 22 18:37:27 2024
25,tiksi,71.6872,128.8694,6.38,88,98,2.72,RU,Mon Jul 22 18:37:29 2024
26,santa elena de uairen,4.6167,-61.1333,18.98,96,100,0.73,VE,Mon Jul 22 18:37:31 2024
27,kingston,17.997,-76.7936,30.53,74,20,7.2,JM,Mon Jul 22 18:37:32 2024
28,hami,42.8,93.45,27.82,25,100,7.01,CN,Mon Jul 22 18:37:34 2024
29,waitangi,-43.9535,-176.5597,9.34,99,100,4.47,NZ,Mon Jul 22 18:37:37 2024
30,zhaogezhuang,39.7667,118.4,31.04,65,0,2.04,CN,Mon Jul 22 18:37:39 2024
31,cozumel,20.5083,-86.9458,30.04,84,75,4.12,MX,Mon Jul 22 18:37:40 2024
32,nemuro,43.3236,145.575,21.55,81,100,5.67,JP,Mon Jul 22 18:37:42 2024
33,trzebiatow,54.0615,15.2648,18.81,81,56,5.09,PL,Mon Jul 22 18:37:43 2024
34,roma,43.2128,-75.4557,22.6,94,100,2.34,US,Mon Jul 22 18:37:45 2024
35,cabo san lucas,22.8909,-109.9124,35.34,63,6,7.21,MX,Mon Jul 22 18:27:41 2024
36,lebu,-37.6167,-73.65,7.96,85,33,1.26,CL,Mon Jul 22 18:37:48 2024
37,richards bay,-28.783,32.0377,18.23,74,61,2.08,ZA,Mon Jul 22 18:37:49 2024
38,kourou,5.1552,-52.6478,27.03,82,44,4.41,GF,Mon Jul 22 18:36:54 2024
39,utrik,11.2278,169.8474,28.08,77,25,6.81,MH,Mon Jul 22 18:37:52 2024
40,colonia general alfredo stroessner,-25.3667,-55.7,17.0,79,5,1.85,PY,Mon Jul 22 18:37:53 2024
41,mawu,34.4307,104.9176,15.53,99,100,2.21,CN,Mon Jul 22 18:37:55 2024
42,wailua homesteads,22.0669,-159.378,28.44,71,40,6.69,US,Mon Jul 22 18:37:56 2024
43,adamstown,-25.066,-130.1015,18.8,70,4,7.47,PN,Mon Jul 22 18:37:58 2024
44,avarua,-21.2078,-159.775,25.03,61,40,6.69,CK,Mon Jul 22 18:38:01 2024
45,karachev,53.1229,34.9852,14.52,93,9,1.44,RU,Mon Jul 22 18:38:02 2024
46,dauphin,51.1494,-100.0502,22.08,83,75,6.69,CA,Mon Jul 22 18:38:03 2024
47,acarau,-2.8856,-40.12,25.4,82,0,7.57,BR,Mon Jul 22 18:38:05 2024
48,kizhinga,51.8462,109.9097,22.48,61,100,1.16,RU,Mon Jul 22 18:38:06 2024
49,keflavik,64.0049,-22.5624,9.95,100,100,5.14,IS,Mon Jul 22 18:38:08 2024
50,bilibino,68.0546,166.4372,25.32,51,2,5.34,RU,Mon Jul 22 18:38:09 2024
51,masterton,-40.9597,175.6575,11.6,62,54,5.66,NZ,Mon Jul 22 18:38:11 2024
52,enewetak,11.3474,162.3373,28.46,80,82,7.57,MH,Mon Jul 22 18:38:12 2024
53,georgetown,5.4112,100.3354,28.96,89,20,1.54,MY,Mon Jul 22 18:38:14 2024
54,ferry pass,30.5102,-87.2125,29.25,80,0,5.14,US,Mon Jul 22 18:33:47 2024
55,hithadhoo,-0.6,73.0833,28.97,76,19,5.76,MV,Mon Jul 22 18:38:16 2024
56,ilomantsi,62.6716,30.9328,10.39,80,8,1.58,FI,Mon Jul 22 18:38:18 2024
57,thompson,55.7435,-97.8558,21.09,37,20,2.06,CA,Mon Jul 22 18:38:19 2024
58,floro,61.5996,5.0328,13.98,82,12,4.63,NO,Mon Jul 22 18:38:21 2024
59,telsiai,55.9814,22.2472,18.35,75,100,2.74,LT,Mon Jul 22 18:38:22 2024
60,west island,-12.1568,96.8225,26.99,78,6,5.66,CC,Mon Jul 22 18:38:24 2024
61,holualoa,19.6228,-155.9522,26.91,80,40,4.63,US,Mon Jul 22 18:33:34 2024
62,howrah,22.5892,88.3103,27.0,100,75,2.06,IN,Mon Jul 22 18:38:26 2024
63,pacasmayo,-7.4006,-79.5714,16.63,85,5,5.61,PE,Mon Jul 22 18:38:28 2024
64,kachug,53.9606,105.8817,20.52,88,100,1.72,RU,Mon Jul 22 18:38:29 2024
65,margate,51.3813,1.3862,17.72,84,77,5.59,GB,Mon Jul 22 18:38:31 2024
66,la ronge,55.1001,-105.2842,21.14,56,0,5.66,CA,Mon Jul 22 18:38:32 2024
67,yellowknife,62.456,-114.3525,25.79,55,40,3.58,CA,Mon Jul 22 18:38:34 2024
68,sao jose da coroa grande,-8.8978,-35.1478,23.37,73,100,4.68,BR,Mon Jul 22 18:38:35 2024
69,vilyuchinsk,52.9306,158.4028,16.15,95,100,4.29,RU,Mon Jul 22 18:38:37 2024
70,west richland,46.3043,-119.3614,36.28,27,0,4.63,US,Mon Jul 22 18:38:38 2024
71,badger,64.8,-147.5333,28.95,33,0,2.06,US,Mon Jul 22 18:38:40 2024
72,bhinmal,25.0,72.25,28.4,83,100,3.68,IN,Mon Jul 22 18:38:41 2024
73,pangkalanbuun,-2.6833,111.6167,27.51,76,76,1.71,ID,Mon Jul 22 18:38:43 2024
74,tabou,4.423,-7.3528,23.71,85,100,3.25,CI,Mon Jul 22 18:38:44 2024
75,hermanus,-34.4187,19.2345,10.77,76,3,1.37,ZA,Mon Jul 22 18:38:46 2024
76,prince rupert,54.3161,-130.3201,16.83,84,100,3.6,CA,Mon Jul 22 18:38:47 2024
77,ilulissat,69.2167,-51.1,7.01,87,20,1.54,GL,Mon Jul 22 18:38:48 2024
78,porto san giorgio,43.1827,13.7934,25.55,77,0,2.84,IT,Mon Jul 22 18:38:50 2024
79,awjilah,29.1081,21.2869,27.81,48,6,3.83,LY,Mon Jul 22 18:38:52 2024
80,rozdilna,46.8433,30.0792,20.09,71,52,3.44,UA,Mon Jul 22 18:38:53 2024
81,qaqortoq,60.7167,-46.0333,7.71,86,100,2.65,GL,Mon Jul 22 18:38:55 2024
82,sao vicente,-23.9631,-46.3919,21.82,78,0,0.46,BR,Mon Jul 22 18:38:56 2024
83,kitob,39.0843,66.8332,26.42,28,0,2.58,UZ,Mon Jul 22 18:38:57 2024
84,port elizabeth,-33.918,25.5701,7.16,93,0,1.54,ZA,Mon Jul 22 18:38:59 2024
85,st. john's,47.5649,-52.7093,17.66,78,20,9.77,CA,Mon Jul 22 18:37:41 2024
86,port isabel,26.0734,-97.2086,31.05,80,100,0.89,US,Mon Jul 22 18:39:02 2024
87,katsuura,35.1333,140.3,27.85,84,3,5.09,JP,Mon Jul 22 18:39:04 2024
88,pihani,27.6333,80.2,28.81,78,49,4.23,IN,Mon Jul 22 18:39:05 2024
89,stanley,54.868,-1.6985,15.16,92,75,1.03,GB,Mon Jul 22 18:39:07 2024
90,alta,69.9689,23.2717,20.59,64,0,5.14,NO,Mon Jul 22 18:39:08 2024
91,san francisco pujiltic,16.2778,-92.4493,22.76,93,100,1.27,MX,Mon Jul 22 18:39:10 2024
92,afaahiti,-17.75,-149.2833,25.93,71,12,9.89,PF,Mon Jul 22 18:39:11 2024
93,chonchi,-42.6128,-73.8092,8.95,96,100,1.02,CL,Mon Jul 22 18:39:13 2024
94,oltinko'l,40.8011,72.1634,28.3,24,88,2.34,UZ,Mon Jul 22 18:39:14 2024
95,olonkinbyen,70.9221,-8.7187,4.89,95,99,8.63,SJ,Mon Jul 22 18:39:16 2024
96,palikir - national government center,6.9248,158.1611,31.41,74,75,4.12,FM,Mon Jul 22 18:39:17 2024
97,kirensk,57.7853,108.1119,25.69,64,54,1.33,RU,Mon Jul 22 18:39:18 2024
98,sinabang,2.4803,96.3801,27.73,82,100,2.96,ID,Mon Jul 22 18:39:20 2024
99,ngorongoro,-3.2397,35.4875,6.94,79,15,2.44,TZ,Mon Jul 22 18:39:21 2024
100,nova sintra,14.8667,-24.7167,25.16,80,34,3.26,CV,Mon Jul 22 18:39:23 2024
101,la foa,-21.7108,165.8276,21.64,57,100,2.18,NC,Mon Jul 22 18:39:24 2024
102,ha'il,27.5219,41.6907,30.01,20,0,1.03,SA,Mon Jul 22 18:39:26 2024
103,fortuna,40.5982,-124.1573,17.97,70,0,6.17,US,Mon Jul 22 18:39:27 2024
104,yarmouth,41.7057,-70.2286,25.01,89,75,3.6,US,Mon Jul 22 18:39:29 2024
105,east london,-33.0153,27.9116,12.5,68,0,3.56,ZA,Mon Jul 22 18:39:30 2024
106,petrolina,-9.3986,-40.5008,25.03,53,0,2.57,BR,Mon Jul 22 18:39:32 2024
107,newman,37.3138,-121.0208,40.72,13,53,3.81,US,Mon Jul 22 18:39:33 2024
108,punta arenas,-53.15,-70.9167,4.06,81,40,1.54,CL,Mon Jul 22 18:39:34 2024
109,saint-joseph,-21.3667,55.6167,18.59,73,8,1.19,RE,Mon Jul 22 18:39:36 2024
110,petropavlovsk-kamchatsky,53.0452,158.6483,15.33,82,75,5.0,RU,Mon Jul 22 18:39:37 2024
111,itoman,26.1247,127.6694,30.22,94,75,4.63,JP,Mon Jul 22 18:39:39 2024
112,iqaluit,63.7506,-68.5145,7.85,81,40,3.09,CA,Mon Jul 22 18:39:40 2024
113,brisas de zicatela,15.8369,-97.0419,30.29,79,40,1.03,MX,Mon Jul 22 18:39:42 2024
114,margaret river,-33.95,115.0667,12.34,66,99,5.22,AU,Mon Jul 22 18:35:41 2024
115,anadyr,64.75,177.4833,16.28,72,75,9.0,RU,Mon Jul 22 18:39:46 2024
116,malvan,16.0667,73.4667,27.48,83,100,9.33,IN,Mon Jul 22 18:39:47 2024
117,puerto baquerizo moreno,-0.9,-89.6,20.93,83,80,5.73,EC,Mon Jul 22 18:39:49 2024
118,hilo,19.7297,-155.09,29.03,74,20,5.66,US,Mon Jul 22 18:39:51 2024
119,siwa oasis,29.2041,25.5195,30.67,31,0,2.79,EG,Mon Jul 22 18:39:52 2024
120,sisimiut,66.9395,-53.6735,7.19,80,14,5.85,GL,Mon Jul 22 18:39:54 2024
121,alofi,-19.0595,-169.9187,26.94,69,75,4.63,NU,Mon Jul 22 18:39:55 2024
122,isafjordur,66.0755,-23.124,6.59,88,100,1.67,IS,Mon Jul 22 18:39:57 2024
123,ribeira grande,38.5167,-28.7,23.76,84,0,0.89,PT,Mon Jul 22 18:39:58 2024
124,mejit,10.2753,170.8646,28.17,78,17,7.24,MH,Mon Jul 22 18:40:00 2024
125,sasebo,33.1592,129.7228,30.99,71,100,4.73,JP,Mon Jul 22 18:40:02 2024
126,alice springs,-23.7,133.8833,12.75,47,0,1.54,AU,Mon Jul 22 18:40:03 2024
127,mwingi,-0.9344,38.0601,16.16,48,36,1.76,KE,Mon Jul 22 18:40:05 2024
128,sitka,57.0531,-135.33,14.94,77,100,1.54,US,Mon Jul 22 18:40:06 2024
129,bubaque,11.2833,-15.8333,27.01,82,100,6.31,GW,Mon Jul 22 18:40:07 2024
130,bardai,11.65,7.2333,21.45,93,77,3.45,NG,Mon Jul 22 18:40:09 2024
131,rio gallegos,-51.6226,-69.2181,5.03,70,0,8.23,AR,Mon Jul 22 18:40:10 2024
132,whitehorse,60.7161,-135.0538,23.43,46,40,5.14,CA,Mon Jul 22 18:38:42 2024
133,invercargill,-46.4,168.35,9.45,81,83,2.68,NZ,Mon Jul 22 18:38:28 2024
134,iskateley,67.6803,53.1512,9.2,81,28,3.43,RU,Mon Jul 22 18:40:15 2024
135,smithers,54.7804,-127.1743,25.18,41,40,4.12,CA,Mon Jul 22 18:40:16 2024
136,sao gabriel da cachoeira,-0.1303,-67.0892,23.15,93,33,1.22,BR,Mon Jul 22 18:40:18 2024
137,tomatlan,19.9333,-105.25,25.32,94,100,0.61,MX,Mon Jul 22 18:40:13 2024
138,rio grande,-32.035,-52.0986,15.06,91,0,1.98,BR,Mon Jul 22 18:40:21 2024
139,manta,-0.95,-80.7333,23.88,73,0,6.69,EC,Mon Jul 22 18:37:25 2024
140,la'ie,21.6477,-157.9253,31.66,72,0,2.24,US,Mon Jul 22 18:40:24 2024
141,saint-philippe,-21.3585,55.7679,18.77,73,10,1.77,RE,Mon Jul 22 18:40:26 2024
142,mount darwin,-16.7725,31.5838,11.09,57,0,1.35,ZW,Mon Jul 22 18:40:27 2024
143,happy valley-goose bay,53.3168,-60.3315,14.17,67,75,7.2,CA,Mon Jul 22 18:40:29 2024
144,kalmunai,7.4167,81.8167,27.16,73,36,1.86,LK,Mon Jul 22 18:40:30 2024
145,zaozersk,69.4005,32.4476,15.8,54,47,3.49,RU,Mon Jul 22 18:40:32 2024
146,ephraim,39.3597,-111.5863,31.56,18,64,3.73,US,Mon Jul 22 18:39:04 2024
147,soe,-9.8607,124.284,20.61,65,99,2.61,ID,Mon Jul 22 18:40:35 2024
148,salekhard,66.53,66.6019,9.87,69,100,3.63,RU,Mon Jul 22 18:40:36 2024
149,pimentel,-6.8367,-79.9342,17.16,77,0,8.75,PE,Mon Jul 22 18:40:38 2024
150,kishtwar,33.3167,75.7667,21.09,83,31,1.44,IN,Mon Jul 22 18:40:40 2024
151,cambria,35.5641,-121.0808,37.41,68,67,2.96,US,Mon Jul 22 18:40:41 2024
152,kapa'a,22.0752,-159.319,29.18,69,40,6.69,US,Mon Jul 22 18:40:43 2024
153,college,64.8569,-147.8028,28.99,32,20,2.06,US,Mon Jul 22 18:40:44 2024
154,almus,40.3758,36.9044,18.02,79,0,0.99,TR,Mon Jul 22 18:40:46 2024
155,el bauga,18.262,33.9081,33.35,40,82,9.28,SD,Mon Jul 22 18:40:47 2024
156,kavaratti,10.5669,72.642,27.2,87,100,6.96,IN,Mon Jul 22 18:40:49 2024
157,bikenibeu village,1.3673,173.1241,30.98,74,75,4.63,KI,Mon Jul 22 18:40:50 2024
158,cole harbour,44.6724,-63.4751,18.71,63,100,0.51,CA,Mon Jul 22 18:40:53 2024
159,keetmanshoop,-26.5833,18.1333,11.51,19,64,1.54,NA,Mon Jul 22 18:40:54 2024
160,lawrenceburg,38.0373,-84.8966,26.32,85,0,2.06,US,Mon Jul 22 18:40:55 2024
161,zabol,32.25,67.25,23.16,14,6,1.2,AF,Mon Jul 22 18:40:57 2024
162,ajdabiya,30.7554,20.2263,26.56,54,0,3.25,LY,Mon Jul 22 18:40:59 2024
163,okhotsk,59.3833,143.3,16.58,80,100,0.89,RU,Mon Jul 22 18:41:00 2024
164,mermoz boabab,14.7065,-17.4758,28.31,83,40,4.12,SN,Mon Jul 22 18:41:05 2024
165,kralendijk,12.15,-68.2667,28.99,74,20,7.72,BQ,Mon Jul 22 18:41:06 2024
166,longyearbyen,78.2186,15.6401,9.91,87,75,0.51,SJ,Mon Jul 22 18:41:07 2024
167,guerrero negro,27.9769,-114.0611,22.4,70,0,8.06,MX,Mon Jul 22 18:41:09 2024
168,walvis bay,-22.9575,14.5053,11.16,93,0,1.03,NA,Mon Jul 22 18:41:10 2024
169,hawaiian paradise park,19.5933,-154.9731,28.91,71,20,5.66,US,Mon Jul 22 18:41:12 2024
170,vadso,70.0744,29.7487,17.49,76,76,2.06,NO,Mon Jul 22 18:41:13 2024
171,naze,28.3667,129.4833,30.51,79,14,5.94,JP,Mon Jul 22 18:41:15 2024
172,baise city,23.8997,106.6133,29.08,99,99,0.48,CN,Mon Jul 22 18:41:16 2024
173,katabu,-4.9333,122.5167,27.59,59,82,3.12,ID,Mon Jul 22 18:41:18 2024
174,puerto natales,-51.7236,-72.4875,3.6,92,100,1.76,CL,Mon Jul 22 18:41:20 2024
175,shahrak,34.1074,64.3052,14.2,45,0,2.15,AF,Mon Jul 22 18:41:22 2024
176,sanchursk,56.9413,47.2499,9.82,84,7,3.01,RU,Mon Jul 22 18:41:23 2024
177,ust'-barguzin,53.45,108.9833,17.76,74,100,0.17,RU,Mon Jul 22 18:41:25 2024
178,minas de marcona,-15.2119,-75.1103,10.11,88,44,6.21,PE,Mon Jul 22 18:41:26 2024
179,katpur,21.05,71.7833,27.14,88,100,8.18,IN,Mon Jul 22 18:41:28 2024
180,mibu,36.4167,139.8,33.34,49,5,1.28,JP,Mon Jul 22 18:41:29 2024
181,fort abbas,29.1925,72.8536,31.45,60,100,7.33,PK,Mon Jul 22 18:41:31 2024
182,brigantine,39.4101,-74.3646,23.97,96,100,1.34,US,Mon Jul 22 18:41:32 2024
183,launceston,-41.45,147.1667,13.52,94,100,8.75,AU,Mon Jul 22 18:41:34 2024
184,trondheim,63.4305,10.3951,14.03,96,100,0.45,NO,Mon Jul 22 18:41:35 2024
185,kodiak,57.79,-152.4072,15.73,77,100,6.17,US,Mon Jul 22 18:41:37 2024
186,zarqa,32.0728,36.088,27.95,26,0,3.6,JO,Mon Jul 22 18:41:38 2024
187,miguel ahumada,30.6167,-106.5167,24.19,59,58,6.17,MX,Mon Jul 22 18:41:40 2024
188,kununurra,-15.7667,128.7333,20.99,32,6,2.57,AU,Mon Jul 22 18:41:43 2024
189,xianning,29.8833,114.2167,32.12,60,100,2.61,CN,Mon Jul 22 18:41:44 2024
190,udachny,66.4167,112.4,14.84,44,38,2.54,RU,Mon Jul 22 18:41:46 2024
191,queenstown,-31.8976,26.8753,5.13,34,6,1.83,ZA,Mon Jul 22 18:41:48 2024
192,xuanzhou,30.9525,118.7553,33.2,63,98,1.75,CN,Mon Jul 22 18:41:49 2024
193,magadan,59.5667,150.8,18.39,75,23,1.67,RU,Mon Jul 22 18:41:51 2024
194,constantia,44.1833,28.65,23.38,70,3,4.56,RO,Mon Jul 22 18:41:52 2024
195,ar ruways,24.1103,52.7306,32.67,63,100,3.21,AE,Mon Jul 22 18:41:53 2024
196,mangalia,43.8,28.5833,22.57,75,0,5.1,RO,Mon Jul 22 18:41:55 2024
197,chernyshevskiy,63.0128,112.4714,16.87,45,16,5.34,RU,Mon Jul 22 18:41:56 2024
198,longboat key,27.4125,-82.659,29.0,71,61,4.92,US,Mon Jul 22 18:41:58 2024
199,papao,-17.75,-149.55,26.82,70,61,10.81,PF,Mon Jul 22 18:41:59 2024
200,mbandaka,0.0487,18.2603,22.43,82,92,1.31,CD,Mon Jul 22 18:42:01 2024
201,san antonio de pale,-1.4014,5.6325,22.55,88,100,6.25,GQ,Mon Jul 22 18:42:02 2024
202,tarko-sale,64.9225,77.785,10.67,55,100,6.33,RU,Mon Jul 22 18:42:04 2024
203,velikiy ustyug,60.7644,46.3106,10.99,70,15,1.71,RU,Mon Jul 22 18:42:05 2024
204,bengkulu,-3.8004,102.2655,25.32,77,88,1.11,ID,Mon Jul 22 18:42:07 2024
205,phulpur,25.55,82.1,31.03,69,100,4.7,IN,Mon Jul 22 18:42:08 2024
206,kirakira,-10.4544,161.9205,29.61,70,95,5.91,SB,Mon Jul 22 18:42:10 2024
207,samalkha,29.2333,77.0167,27.31,87,12,3.08,IN,Mon Jul 22 18:42:11 2024
208,ola,59.5833,151.2833,19.37,71,18,1.94,RU,Mon Jul 22 18:42:13 2024
209,manga,11.6636,-1.0731,24.33,88,99,2.68,BF,Mon Jul 22 18:42:14 2024
210,borogontsy,62.6683,131.1683,23.83,52,14,2.79,RU,Mon Jul 22 18:42:17 2024
211,asekeyevo,53.5742,52.7972,12.88,91,98,2.79,RU,Mon Jul 22 18:42:19 2024
212,vila franca do campo,37.7167,-25.4333,22.23,99,0,2.25,PT,Mon Jul 22 18:42:20 2024
213,mbekenyera,-10.0,38.9833,15.82,88,100,1.2,TZ,Mon Jul 22 18:42:22 2024
214,cockburn town,21.4612,-71.1419,27.75,86,6,9.95,TC,Mon Jul 22 18:42:23 2024
215,haiku-pauwela,20.9219,-156.3051,28.01,70,40,12.35,US,Mon Jul 22 18:42:25 2024
216,rongelap,11.1635,166.8941,28.54,77,17,7.07,MH,Mon Jul 22 18:42:26 2024
217,port lincoln,-34.7333,135.8667,14.59,43,100,8.81,AU,Mon Jul 22 18:42:28 2024
218,karratha,-20.7377,116.8463,21.74,35,0,1.7,AU,Mon Jul 22 18:42:29 2024
219,dereli,40.7378,38.4493,21.09,58,0,2.76,TR,Mon Jul 22 18:42:31 2024
220,prado,-17.3411,-39.2208,21.77,64,0,3.48,BR,Mon Jul 22 18:42:32 2024
221,el calafate,-50.3408,-72.2768,2.24,86,39,0.62,AR,Mon Jul 22 18:42:34 2024
222,san patricio,28.017,-97.5169,29.95,63,4,5.15,US,Mon Jul 22 18:42:35 2024
223,fort st. john,56.2499,-120.8529,24.94,69,100,4.63,CA,Mon Jul 22 18:42:37 2024
224,butterworth,5.3991,100.3638,29.02,89,20,1.54,MY,Mon Jul 22 18:42:38 2024
225,az zulfi,26.2995,44.8154,30.13,16,3,3.67,SA,Mon Jul 22 18:42:39 2024
226,ajman city,25.4111,55.435,35.02,75,32,1.54,AE,Mon Jul 22 18:42:41 2024
227,manokwari,-0.8667,134.0833,26.06,83,97,2.0,ID,Mon Jul 22 18:42:42 2024
228,forster,-32.1667,152.5167,16.88,61,0,1.58,AU,Mon Jul 22 18:42:44 2024
229,berkane,34.9084,-2.3461,24.82,74,0,0.96,MA,Mon Jul 22 18:42:45 2024
230,sovetsk,55.0839,21.8785,17.17,88,100,1.75,RU,Mon Jul 22 18:42:48 2024
231,lincoln city,44.9582,-124.0179,20.16,75,0,4.47,US,Mon Jul 22 18:42:50 2024
232,isangel,-19.55,169.2667,25.06,78,75,1.54,VU,Mon Jul 22 18:42:51 2024
233,puerto ayora,-0.7393,-90.3518,20.31,98,95,2.68,EC,Mon Jul 22 18:42:53 2024
234,arraial do cabo,-22.9661,-42.0278,17.98,94,75,1.03,BR,Mon Jul 22 18:42:54 2024
235,embi,48.8264,58.1442,24.0,45,100,3.23,KZ,Mon Jul 22 18:42:56 2024
236,necochea,-38.5473,-58.7368,10.47,47,3,5.29,AR,Mon Jul 22 18:42:57 2024
237,vernon,50.2581,-119.2691,37.39,26,19,1.54,CA,Mon Jul 22 18:42:59 2024
238,hinthada,17.6333,95.4667,26.77,86,78,2.53,MM,Mon Jul 22 18:43:00 2024
239,petawawa,45.9001,-77.3328,21.44,64,100,1.0,CA,Mon Jul 22 18:43:02 2024
240,klyuchi,52.2667,79.1667,19.0,75,51,0.5,RU,Mon Jul 22 18:43:03 2024
241,belek,36.8628,31.0556,30.28,68,0,1.26,TR,Mon Jul 22 18:43:04 2024
242,puerto rico,-26.796,-55.024,15.76,88,2,0.96,AR,Mon Jul 22 18:43:06 2024
243,turpan,42.9333,89.1667,32.89,24,98,1.53,CN,Mon Jul 22 18:43:07 2024
244,ulsteinvik,62.3432,5.8487,14.62,87,21,2.24,NO,Mon Jul 22 18:43:09 2024
245,nyurba,63.2842,118.3319,15.85,66,100,4.25,RU,Mon Jul 22 18:43:10 2024
246,fanipol,53.7627,27.2962,15.05,87,0,1.43,BY,Mon Jul 22 18:43:12 2024
247,newcastle west,52.4492,-9.0611,14.14,95,97,3.62,IE,Mon Jul 22 18:43:13 2024
248,new norfolk,-42.7826,147.0587,15.72,68,100,3.63,AU,Mon Jul 22 18:43:15 2024
249,port macquarie,-31.4333,152.9167,17.26,53,0,1.4,AU,Mon Jul 22 18:39:22 2024
250,mount pearl,47.5166,-52.7813,17.19,78,20,9.77,CA,Mon Jul 22 18:41:06 2024
251,kuta,-8.7233,115.1723,26.97,83,20,5.66,ID,Mon Jul 22 18:43:20 2024
252,qarazhal,48.0078,70.7903,24.52,47,100,3.42,KZ,Mon Jul 22 18:43:22 2024
253,rouyn-noranda,48.2398,-79.0288,15.05,77,100,4.63,CA,Mon Jul 22 18:43:23 2024
254,bamboo flat,11.7,92.7167,29.05,84,75,4.12,IN,Mon Jul 22 18:43:25 2024
255,mao,39.8885,4.2658,22.31,83,0,2.57,ES,Mon Jul 22 18:43:26 2024
256,nuuk,64.1835,-51.7216,8.34,81,75,5.66,GL,Mon Jul 22 18:43:28 2024
257,khandyga,62.6667,135.6,18.47,74,96,0.4,RU,Mon Jul 22 18:43:29 2024
258,yatou,37.15,122.3833,23.83,99,100,3.94,CN,Mon Jul 22 18:43:31 2024
259,carutapera,-1.195,-46.02,25.28,85,1,2.98,BR,Mon Jul 22 18:43:33 2024
260,susanville,40.4163,-120.653,35.92,28,100,1.63,US,Mon Jul 22 18:42:16 2024
261,at taj,24.2049,23.2857,29.34,20,13,4.69,LY,Mon Jul 22 18:43:36 2024
262,aasiaat,68.7098,-52.8699,3.71,96,86,0.95,GL,Mon Jul 22 18:43:38 2024
263,al faw,29.9776,48.4741,31.0,30,2,3.84,IQ,Mon Jul 22 18:43:39 2024
264,santa cruz cabralia,-16.2781,-39.0247,23.13,68,0,2.57,BR,Mon Jul 22 18:43:41 2024
265,tura,25.5198,90.2201,24.54,95,100,2.06,IN,Mon Jul 22 18:43:42 2024
266,melekeok village,7.4957,134.6367,29.31,79,75,2.57,PW,Mon Jul 22 18:43:44 2024
267,port alfred,-33.5906,26.891,12.72,74,0,4.22,ZA,Mon Jul 22 18:43:45 2024
268,nasipit,8.9692,125.2947,28.07,81,100,1.6,PH,Mon Jul 22 18:43:47 2024
269,tocopilla,-22.092,-70.1979,16.25,75,7,2.37,CL,Mon Jul 22 18:43:48 2024
270,batticaloa,7.7102,81.6924,27.87,68,36,0.06,LK,Mon Jul 22 18:43:49 2024
271,northam,51.0333,-4.2167,18.14,96,63,7.45,GB,Mon Jul 22 18:43:51 2024
272,rasht,37.2808,49.5832,23.94,77,1,1.33,IR,Mon Jul 22 18:43:52 2024
273,sabang,5.8933,95.3214,28.49,74,100,6.05,ID,Mon Jul 22 18:43:54 2024
274,nyaunglebin,17.95,96.7333,24.64,95,100,1.33,MM,Mon Jul 22 18:43:57 2024
275,bechar,31.6167,-2.2167,36.18,11,86,4.12,DZ,Mon Jul 22 18:43:58 2024
276,pisco,-13.7,-76.2167,17.03,77,0,7.72,PE,Mon Jul 22 18:44:00 2024
277,atafu village,-8.5421,-172.5159,28.67,77,100,9.23,TK,Mon Jul 22 18:44:01 2024
278,dhuusamarreeb,5.535,46.3861,23.2,78,62,8.67,SO,Mon Jul 22 18:44:03 2024
279,san borja,-14.8167,-66.85,23.87,55,2,0.83,BO,Mon Jul 22 18:44:04 2024
280,sumbe,-11.2061,13.8437,19.7,94,27,3.48,AO,Mon Jul 22 18:44:06 2024
281,brezina,33.0989,1.2608,30.02,12,37,3.94,DZ,Mon Jul 22 18:44:07 2024
282,tayshet,55.9342,98.0044,16.68,99,100,4.96,RU,Mon Jul 22 18:44:09 2024
283,wanning,18.8003,110.3967,29.65,74,100,5.31,CN,Mon Jul 22 18:44:10 2024
284,tukrah,32.5341,20.5791,26.38,64,0,0.85,LY,Mon Jul 22 18:44:12 2024
285,abha,18.2164,42.5053,20.9,64,0,0.0,SA,Mon Jul 22 18:44:13 2024
286,biryusinsk,55.9634,97.8235,16.83,99,100,5.11,RU,Mon Jul 22 18:44:14 2024
287,kozan,37.4552,35.8157,26.08,93,65,1.14,TR,Mon Jul 22 18:44:16 2024
288,saldanha,-33.0117,17.9442,4.03,72,100,1.06,ZA,Mon Jul 22 18:44:18 2024
289,nuku'alofa,-21.1333,-175.2,27.19,78,20,3.09,TO,Mon Jul 22 18:44:19 2024
290,elk city,35.412,-99.4043,27.99,47,0,2.57,US,Mon Jul 22 18:44:20 2024
291,san mateo del mar,16.2,-95.0,29.92,75,100,4.86,MX,Mon Jul 22 18:44:22 2024
292,tazovsky,67.4667,78.7,6.46,69,100,5.71,RU,Mon Jul 22 18:44:23 2024
293,bontang,0.1333,117.5,26.8,87,100,3.39,ID,Mon Jul 22 18:44:25 2024
294,kavieng,-2.5744,150.7967,27.21,83,100,6.32,PG,Mon Jul 22 18:44:26 2024
295,zouerate,22.7187,-12.4521,35.16,25,11,5.63,MR,Mon Jul 22 18:44:28 2024
296,pontevedra,42.431,-8.6444,20.57,71,6,2.68,ES,Mon Jul 22 18:44:29 2024
297,lisakovsk,52.5369,62.4936,15.85,91,7,3.72,KZ,Mon Jul 22 18:44:31 2024
298,nanlong,31.3533,106.0631,28.38,86,100,1.58,CN,Mon Jul 22 18:44:32 2024
299,kyzyl-mazhalyk,51.1333,90.6,17.13,63,23,1.13,RU,Mon Jul 22 18:44:33 2024
300,nichinan,31.6,131.3667,28.82,72,14,4.22,JP,Mon Jul 22 18:44:35 2024
301,pilar,-9.5972,-35.9567,23.96,86,70,0.74,BR,Mon Jul 22 18:44:37 2024
302,hell-ville,-13.4,48.2667,24.31,73,86,1.04,MG,Mon Jul 22 18:44:40 2024
303,gaalkacyo,6.7697,47.4308,24.04,71,100,9.59,SO,Mon Jul 22 18:44:42 2024
304,beau vallon,-20.4189,57.6953,19.56,88,20,3.09,MU,Mon Jul 22 18:44:43 2024
305,kargil,34.5667,76.1,12.8,47,12,2.99,IN,Mon Jul 22 18:44:45 2024
306,nobres,-14.7203,-56.3275,22.74,30,0,1.48,BR,Mon Jul 22 18:44:46 2024
307,selfoss,63.9331,-20.9971,10.02,93,100,5.75,IS,Mon Jul 22 18:44:48 2024
308,flying fish cove,-10.4217,105.6791,24.82,88,100,4.12,CX,Mon Jul 22 18:44:49 2024
309,ust-nera,64.5667,143.2,21.89,62,96,2.64,RU,Mon Jul 22 18:44:51 2024
310,kyshtovka,56.555,76.6271,12.4,77,100,1.95,RU,Mon Jul 22 18:44:52 2024
311,taoudenni,22.6783,-3.9836,39.04,19,99,5.3,ML,Mon Jul 22 18:44:54 2024
312,aripuana,-9.1667,-60.6333,24.22,38,2,1.08,BR,Mon Jul 22 18:44:55 2024
313,dire dawa,9.5931,41.8661,21.68,75,92,5.97,ET,Mon Jul 22 18:44:58 2024
314,boende,-0.2167,20.8667,22.16,94,78,0.5,CD,Mon Jul 22 18:45:00 2024
315,rockland,41.1668,-74.0496,25.44,88,100,2.83,US,Mon Jul 22 18:45:01 2024
316,celestun,20.8667,-90.4,27.72,83,82,4.31,MX,Mon Jul 22 18:45:03 2024
317,nadym,65.5333,72.5167,11.36,57,100,4.3,RU,Mon Jul 22 18:44:30 2024
318,lompoc,34.6391,-120.4579,24.36,74,0,6.69,US,Mon Jul 22 18:45:06 2024
319,arfoud,31.4348,-4.2375,34.14,16,57,1.81,MA,Mon Jul 22 18:45:07 2024
320,porto novo,6.4965,2.6036,24.9,84,100,3.74,BJ,Mon Jul 22 18:45:09 2024
321,bolnisi,41.4479,44.5384,22.77,70,86,0.4,GE,Mon Jul 22 18:45:10 2024
322,cam ranh,11.9214,109.1591,29.98,66,40,4.12,VN,Mon Jul 22 18:45:12 2024
323,sydney mines,46.2367,-60.2177,17.78,83,75,2.06,CA,Mon Jul 22 18:45:13 2024
324,horta,38.5333,-28.6333,23.34,84,0,0.89,PT,Mon Jul 22 18:45:14 2024
325,nyala,12.05,24.8833,26.6,70,93,4.0,SD,Mon Jul 22 18:45:16 2024
326,pointe-noire,-4.7761,11.8635,21.04,94,20,1.03,CG,Mon Jul 22 18:45:17 2024
327,savelugu,9.6244,-0.8253,25.32,76,100,2.13,GH,Mon Jul 22 18:45:19 2024
328,anapa,44.8908,37.3239,22.19,88,40,2.0,RU,Mon Jul 22 18:45:20 2024
329,shimoda,34.6667,138.95,30.2,73,0,5.92,JP,Mon Jul 22 18:45:22 2024
330,moree,-29.4667,149.85,14.73,53,0,0.72,AU,Mon Jul 22 18:45:23 2024
331,axim,4.8699,-2.2405,23.38,90,100,3.82,GH,Mon Jul 22 18:45:25 2024
332,iranshahr,27.2025,60.6848,36.19,38,38,3.09,IR,Mon Jul 22 18:45:26 2024
333,lincoln,40.8,-96.667,26.96,67,0,2.06,US,Mon Jul 22 18:45:29 2024
334,talnakh,69.4865,88.3972,9.8,53,8,1.18,RU,Mon Jul 22 18:45:30 2024
335,luganville,-15.5333,167.1667,26.29,82,36,5.58,VU,Mon Jul 22 18:45:32 2024
336,marka,1.7159,44.7717,24.25,87,82,6.36,SO,Mon Jul 22 18:45:33 2024
337,yermakovskoye,53.2831,92.4003,17.8,86,100,1.43,RU,Mon Jul 22 18:45:35 2024
338,kone,-21.0595,164.8658,25.19,49,98,1.76,NC,Mon Jul 22 18:45:36 2024
339,galesong,-5.3166,119.3661,28.01,68,14,2.01,ID,Mon Jul 22 18:45:38 2024
340,isoka,-10.1606,32.6335,12.18,66,25,0.8,ZM,Mon Jul 22 18:45:39 2024
341,charters towers,-20.1,146.2667,21.06,41,0,6.9,AU,Mon Jul 22 18:43:04 2024
342,jiexiu,37.0244,111.9125,27.17,71,100,0.34,CN,Mon Jul 22 18:45:42 2024
343,escanaba,45.7453,-87.0646,21.98,73,0,0.0,US,Mon Jul 22 18:45:43 2024
344,barcelos,41.5388,-8.6151,26.03,50,5,2.45,PT,Mon Jul 22 18:45:45 2024
345,masaya sur,16.497,121.7456,24.72,92,100,0.81,PH,Mon Jul 22 18:45:46 2024
346,fort-shevchenko,44.5086,50.263,26.43,65,0,3.61,KZ,Mon Jul 22 18:45:48 2024
347,uturoa,-16.7333,-151.4333,24.91,64,3,9.89,PF,Mon Jul 22 18:45:49 2024
348,anzio,41.4853,12.6179,26.03,64,0,2.76,IT,Mon Jul 22 18:45:52 2024
349,muisne,0.6,-80.0333,23.78,84,100,4.07,EC,Mon Jul 22 18:45:53 2024
350,ghanzi,-21.5667,21.7833,14.45,18,0,1.87,BW,Mon Jul 22 18:45:55 2024
351,ambon,-3.6954,128.1814,25.08,88,75,1.54,ID,Mon Jul 22 18:45:56 2024
352,tiganesti,43.9,25.3667,20.12,87,98,3.29,RO,Mon Jul 22 18:45:58 2024
353,gaspe,48.8334,-64.4819,18.12,55,75,2.57,CA,Mon Jul 22 18:45:59 2024
354,lihue,21.9789,-159.3672,28.77,64,40,6.69,US,Mon Jul 22 18:46:01 2024
355,kailua-kona,19.6406,-155.9956,28.98,82,40,4.63,US,Mon Jul 22 18:42:13 2024
356,nova vicosa,-17.8919,-39.3719,21.58,68,0,3.37,BR,Mon Jul 22 18:46:04 2024
357,nabire,-3.3667,135.4833,24.96,91,93,0.93,ID,Mon Jul 22 18:46:05 2024
358,lerwick,60.1545,-1.1494,12.0,84,100,2.16,GB,Mon Jul 22 18:46:07 2024
359,al wajh,26.2455,36.4525,30.97,74,0,1.54,SA,Mon Jul 22 18:46:08 2024
360,minot,48.2325,-101.2963,29.06,61,0,3.09,US,Mon Jul 22 18:46:09 2024
361,derbent,42.0678,48.2899,25.16,65,0,3.42,RU,Mon Jul 22 18:46:11 2024
362,natal,-5.795,-35.2094,23.36,83,20,4.12,BR,Mon Jul 22 18:43:12 2024
363,belen,36.4891,36.2233,25.08,74,0,8.23,TR,Mon Jul 22 18:46:14 2024
364,mukalla,14.5425,49.1242,29.89,64,100,2.16,YE,Mon Jul 22 18:46:15 2024
365,ryotsu-minato,38.0833,138.4333,28.61,68,78,3.71,JP,Mon Jul 22 18:46:16 2024
366,ondjiva,-17.0667,15.7333,19.02,18,8,2.57,AO,Mon Jul 22 18:46:18 2024
367,katsuren-haebaru,26.3369,127.8719,29.49,88,75,4.63,JP,Mon Jul 22 18:46:19 2024
368,soio,-6.1349,12.3689,21.32,86,3,3.11,AO,Mon Jul 22 18:46:21 2024
369,monrovia,6.3005,-10.7969,23.87,85,63,4.19,LR,Mon Jul 22 18:46:22 2024
370,chany,55.3121,76.7647,14.8,84,100,2.55,RU,Mon Jul 22 18:46:24 2024
371,okha,53.5739,142.9478,11.84,97,100,6.67,RU,Mon Jul 22 18:46:25 2024
372,remire-montjoly,4.9167,-52.2667,27.02,83,0,1.54,GF,Mon Jul 22 18:46:28 2024
373,namalenga,-10.95,39.1,15.42,91,10,1.36,TZ,Mon Jul 22 18:46:30 2024
374,cannonvale,-20.2833,148.7,23.1,66,82,7.82,AU,Mon Jul 22 18:46:31 2024
375,guanambi,-14.2233,-42.7814,20.98,53,5,3.91,BR,Mon Jul 22 18:46:33 2024
376,lesnoy,57.6198,63.0784,10.59,81,99,2.98,RU,Mon Jul 22 18:46:34 2024
377,zakynthos,37.7914,20.8953,25.91,83,0,1.92,GR,Mon Jul 22 18:46:36 2024
378,tremp,42.167,0.8949,21.39,55,1,1.95,ES,Mon Jul 22 18:46:39 2024
379,lae,-6.7221,146.9847,26.37,95,100,1.11,PG,Mon Jul 22 18:46:40 2024
380,talara,-4.5772,-81.2719,18.42,88,0,8.42,PE,Mon Jul 22 18:46:43 2024
381,sao mateus do sul,-25.8742,-50.3828,11.13,86,0,0.49,BR,Mon Jul 22 18:46:45 2024
382,zelenoborskiy,66.845,32.3622,13.16,70,99,0.57,RU,Mon Jul 22 18:46:46 2024
383,maxcanu,20.5833,-89.9833,30.54,60,58,2.62,MX,Mon Jul 22 18:46:48 2024
384,wanxian,30.8039,108.3897,31.22,72,94,1.67,CN,Mon Jul 22 18:46:49 2024
385,piton saint-leu,-21.2196,55.3151,18.06,60,0,3.6,RE,Mon Jul 22 18:46:51 2024
386,la passe,45.5549,-0.8967,18.13,87,0,1.14,FR,Mon Jul 22 18:46:53 2024
387,tsiombe,-25.3,45.4833,17.0,90,8,2.5,MG,Mon Jul 22 18:46:54 2024
388,yuzhno-kurilsk,44.0306,145.8556,23.14,76,100,1.52,RU,Mon Jul 22 18:46:57 2024
389,hasaki,35.7333,140.8333,32.38,70,5,3.83,JP,Mon Jul 22 18:46:58 2024
390,essaouira,31.5125,-9.77,24.72,64,0,2.57,MA,Mon Jul 22 18:47:00 2024
391,weno,7.4515,151.8468,30.97,79,100,2.57,FM,Mon Jul 22 18:47:01 2024
392,lazaro cardenas,17.9583,-102.2,28.18,72,100,1.17,MX,Mon Jul 22 18:47:03 2024
393,nanakuli,21.3906,-158.1547,31.65,47,0,5.66,US,Mon Jul 22 18:47:05 2024
394,buka,40.8108,69.1986,21.26,62,100,3.02,UZ,Mon Jul 22 18:47:06 2024
395,bodaybo,57.8506,114.1933,27.46,60,97,0.97,RU,Mon Jul 22 18:47:08 2024
396,mount isa,-20.7333,139.5,20.87,23,0,6.17,AU,Mon Jul 22 18:47:09 2024
397,cova figueira,14.8905,-24.2934,19.15,84,72,1.64,CV,Mon Jul 22 18:47:11 2024
398,portland,45.5234,-122.6762,24.79,51,20,6.17,US,Mon Jul 22 18:40:26 2024
399,al bayda',32.7627,21.7551,22.27,54,0,1.86,LY,Mon Jul 22 18:47:14 2024
400,mournies,35.4764,24.0092,27.13,83,0,3.6,GR,Mon Jul 22 18:47:15 2024
401,caussade,44.1608,1.5391,15.27,90,4,1.27,FR,Mon Jul 22 18:47:17 2024
402,alibag,18.6411,72.8792,26.04,88,100,8.72,IN,Mon Jul 22 18:47:19 2024
403,poronaysk,49.2167,143.1167,17.98,82,100,1.18,RU,Mon Jul 22 18:47:20 2024
404,kattivakkam,13.2167,80.3167,29.08,75,100,6.52,IN,Mon Jul 22 18:47:22 2024
405,bassar,9.25,0.7833,22.08,91,100,1.3,TG,Mon Jul 22 18:47:23 2024
406,turkestan,43.3333,68.25,27.43,30,7,1.56,KZ,Mon Jul 22 18:47:25 2024
407,prince george,53.9166,-122.753,24.69,57,0,2.06,CA,Mon Jul 22 18:45:04 2024
408,gemena,3.25,19.7667,20.26,98,28,1.35,CD,Mon Jul 22 18:47:27 2024
409,severo-yeniseyskiy,60.3725,93.0408,18.4,83,100,0.68,RU,Mon Jul 22 18:47:29 2024
410,cascavel,-24.9558,-53.4553,14.71,82,2,1.57,BR,Mon Jul 22 18:47:30 2024
411,coquimbo,-29.9533,-71.3436,12.85,70,100,3.09,CL,Mon Jul 22 18:43:16 2024
412,karystos,38.0133,24.4161,30.79,42,0,0.89,GR,Mon Jul 22 18:47:33 2024
413,zhanaozen,43.3,52.8,26.62,43,0,3.7,KZ,Mon Jul 22 18:47:35 2024
414,jiangyou,31.7667,104.7167,27.01,84,100,0.95,CN,Mon Jul 22 18:47:36 2024
415,acapulco de juarez,16.8634,-99.8901,30.9,66,40,2.57,MX,Mon Jul 22 18:47:37 2024
416,saint-pierre,-21.3393,55.4781,19.82,60,0,3.6,RE,Mon Jul 22 18:47:39 2024
417,tazacorte,28.629,-17.9293,22.54,91,20,7.2,ES,Mon Jul 22 18:47:40 2024
418,kibaya,-5.3,36.5667,10.39,76,0,1.56,TZ,Mon Jul 22 18:47:42 2024
419,chibuto,-24.6867,33.5306,15.69,89,0,1.94,MZ,Mon Jul 22 18:47:43 2024
420,matagalpa,12.9256,-85.9175,21.33,86,100,2.87,NI,Mon Jul 22 18:47:45 2024
421,nar'yan-mar,67.6713,53.087,9.22,82,27,3.35,RU,Mon Jul 22 18:47:46 2024
422,sicuani,-14.2694,-71.2261,8.25,51,0,2.67,PE,Mon Jul 22 18:47:48 2024
423,jiuquan,39.7432,98.5174,20.04,58,100,4.28,CN,Mon Jul 22 18:47:49 2024
424,olinda,-8.0089,-34.8553,25.85,69,40,6.69,BR,Mon Jul 22 18:47:51 2024
425,boguchany,58.3814,97.4531,18.97,97,100,0.51,RU,Mon Jul 22 18:45:48 2024
426,kayangel,8.0823,134.7173,25.26,91,100,6.04,PW,Mon Jul 22 18:47:54 2024
427,palmer,42.1584,-72.3287,23.92,70,100,2.04,US,Mon Jul 22 18:47:55 2024
428,burang,30.25,81.1667,10.7,84,100,1.77,CN,Mon Jul 22 18:47:57 2024
429,talakan,50.3167,130.3667,26.24,52,0,1.86,RU,Mon Jul 22 18:47:58 2024
430,krasnyy chikoy,50.3643,108.7512,22.29,70,37,1.23,RU,Mon Jul 22 18:48:00 2024
431,sur,22.5667,59.5289,31.07,62,100,6.05,OM,Mon Jul 22 18:48:01 2024
432,hobyo,5.3505,48.5268,24.21,87,22,10.94,SO,Mon Jul 22 18:48:03 2024
433,lianyuan,27.6883,111.6642,32.27,59,100,1.07,CN,Mon Jul 22 18:48:04 2024
434,kerikeri,-35.2268,173.9474,16.62,77,6,4.47,NZ,Mon Jul 22 18:48:05 2024
435,tambacounda,13.7539,-13.7586,30.03,79,20,4.12,SN,Mon Jul 22 18:48:07 2024
436,broken hill,-31.95,141.4333,14.49,40,2,6.63,AU,Mon Jul 22 18:48:09 2024
437,huaicheng,23.9051,112.1931,30.69,67,0,1.21,CN,Mon Jul 22 18:48:10 2024
438,bor,56.3567,44.0669,12.96,77,0,2.32,RU,Mon Jul 22 18:48:12 2024
439,howard springs,-12.497,131.047,24.95,49,100,3.55,AU,Mon Jul 22 18:48:14 2024
440,juan griego,11.0817,-63.9655,26.41,88,100,4.38,VE,Mon Jul 22 18:48:15 2024
441,pico truncado,-46.7949,-67.9573,8.84,79,100,7.79,AR,Mon Jul 22 18:48:18 2024
442,manakara,-22.1333,48.0167,17.48,94,11,1.68,MG,Mon Jul 22 18:48:19 2024
443,guanica,17.9716,-66.908,27.75,63,100,4.91,PR,Mon Jul 22 18:48:21 2024
444,oranjemund,-28.55,16.4333,10.83,83,3,1.9,NA,Mon Jul 22 18:48:27 2024
445,champerico,14.3,-91.9167,31.3,87,100,6.45,GT,Mon Jul 22 18:48:28 2024
446,port saint john's,-31.6229,29.5448,13.15,78,2,2.69,ZA,Mon Jul 22 18:48:30 2024
447,laizhou,37.1717,119.9214,26.64,91,99,3.12,CN,Mon Jul 22 18:48:31 2024
448,coahuayana de hidalgo,18.7,-103.6583,25.93,91,100,1.66,MX,Mon Jul 22 18:48:33 2024
449,kharabali,47.4196,47.2568,25.04,44,53,3.42,RU,Mon Jul 22 18:48:34 2024
450,thunder bay,48.4001,-89.3168,17.99,88,100,3.09,CA,Mon Jul 22 18:48:36 2024
451,kapuskasing,49.4169,-82.4331,13.05,88,100,2.06,CA,Mon Jul 22 18:48:37 2024
452,quesnel,52.9999,-122.5029,27.28,44,0,3.09,CA,Mon Jul 22 18:48:40 2024
453,yeniseysk,58.4497,92.1703,18.71,93,100,2.13,RU,Mon Jul 22 18:48:42 2024
454,baharly,38.4362,57.4316,29.71,43,30,2.06,TM,Mon Jul 22 18:48:43 2024
455,juneau,58.3019,-134.4197,17.0,72,100,3.09,US,Mon Jul 22 18:48:44 2024
456,zhezqazghan,47.7833,67.7667,19.32,55,0,3.0,KZ,Mon Jul 22 18:48:46 2024
457,ronne,55.1009,14.7066,17.95,77,100,6.69,DK,Mon Jul 22 18:48:48 2024
458,letlhakeng,-24.0944,25.0298,12.62,19,57,2.28,BW,Mon Jul 22 18:48:49 2024
459,chuguyevka,44.1653,133.8633,22.21,95,100,0.75,RU,Mon Jul 22 18:48:50 2024
460,san felipe,10.3399,-68.7425,22.29,92,93,1.03,VE,Mon Jul 22 18:48:52 2024
461,radford,37.1318,-80.5764,23.08,91,75,2.06,US,Mon Jul 22 18:44:27 2024
462,kruisfontein,-34.0033,24.7314,8.13,79,0,2.52,ZA,Mon Jul 22 18:48:55 2024
463,ingeniero jacobacci,-41.3427,-69.5448,9.87,52,33,0.14,AR,Mon Jul 22 18:48:58 2024
464,jamestown,42.097,-79.2353,21.68,89,100,2.06,US,Mon Jul 22 18:48:59 2024
465,yegor'yevsk,55.3783,39.0411,14.57,97,59,2.03,RU,Mon Jul 22 18:49:01 2024
466,mwanza,-2.5167,32.9,21.11,68,58,3.17,TZ,Mon Jul 22 18:49:02 2024
467,quellon,-43.1167,-73.6167,8.07,93,100,3.77,CL,Mon Jul 22 18:49:04 2024
468,al fuwayliq,26.4432,43.2534,28.58,17,0,5.27,SA,Mon Jul 22 18:49:05 2024
469,warner robins,32.621,-83.5999,28.74,83,0,1.54,US,Mon Jul 22 18:49:07 2024
470,kenai,60.5544,-151.2583,17.05,89,40,0.0,US,Mon Jul 22 18:49:08 2024
471,kimbe,-5.5502,150.1429,29.73,69,71,5.0,PG,Mon Jul 22 18:49:09 2024
472,calgary,51.0501,-114.0853,31.47,35,100,7.72,CA,Mon Jul 22 18:42:18 2024
473,smolyaninovo,43.2956,132.4675,23.7,99,100,2.97,RU,Mon Jul 22 18:49:14 2024
474,alamar,23.1583,-82.2769,27.13,85,5,4.99,CU,Mon Jul 22 18:49:15 2024
475,zapolyarnyy,69.4154,30.8136,16.6,56,93,2.72,RU,Mon Jul 22 18:49:18 2024
476,brookings,44.3114,-96.7984,26.19,77,63,1.29,US,Mon Jul 22 18:49:19 2024
477,zhangatas,43.5667,69.75,25.41,33,75,0.16,KZ,Mon Jul 22 18:49:21 2024
478,ponta delgada,37.7333,-25.6667,22.4,83,75,4.63,PT,Mon Jul 22 18:49:22 2024
479,ancud,-41.8697,-73.8203,7.18,93,40,1.12,CL,Mon Jul 22 18:49:24 2024
480,sandnessjoen,66.0217,12.6316,15.29,99,94,5.25,NO,Mon Jul 22 18:49:25 2024
481,villa gesell,-37.2639,-56.973,7.81,71,0,6.45,AR,Mon Jul 22 18:49:27 2024
482,manismata,-2.4667,111.0333,26.86,78,64,1.84,ID,Mon Jul 22 18:49:28 2024
483,francistown,-21.17,27.5079,14.45,38,3,1.35,BW,Mon Jul 22 18:49:29 2024
484,dunedin,-45.8742,170.5036,7.67,73,87,4.02,NZ,Mon Jul 22 18:49:31 2024
485,ketchikan,55.3422,-131.6461,18.52,63,75,2.57,US,Mon Jul 22 18:48:19 2024
486,hun,29.1268,15.9477,29.33,27,0,4.4,LY,Mon Jul 22 18:49:34 2024
487,salanso,12.1833,-4.0833,23.25,92,98,1.9,BF,Mon Jul 22 18:49:35 2024
488,mlalo,-4.9333,38.9333,18.65,83,13,2.02,TZ,Mon Jul 22 18:49:37 2024
489,ouallam,14.3188,2.0866,27.21,67,87,2.45,NE,Mon Jul 22 18:49:38 2024
490,vila velha,-20.3297,-40.2925,21.64,88,0,1.03,BR,Mon Jul 22 18:49:40 2024
491,nikolayevsk-on-amure,53.1406,140.73,12.34,99,100,2.11,RU,Mon Jul 22 18:49:41 2024
492,famagusta,35.125,33.95,28.93,63,0,3.02,CY,Mon Jul 22 18:49:42 2024
493,ogwashi-uku,6.1782,6.5243,21.59,98,99,1.7,NG,Mon Jul 22 18:49:44 2024
494,koryazhma,61.3143,47.1691,11.37,68,12,1.03,RU,Mon Jul 22 18:49:47 2024
495,elko,41.0002,-115.5012,31.01,37,11,10.88,US,Mon Jul 22 18:48:02 2024
496,muroto-misakicho,33.2833,134.15,28.03,82,8,4.12,JP,Mon Jul 22 18:49:50 2024
497,solleftea,63.1667,17.2667,14.92,98,62,1.22,SE,Mon Jul 22 18:49:51 2024
498,waingapu,-9.6567,120.2641,26.61,64,70,5.87,ID,Mon Jul 22 18:49:53 2024
499,anloga,5.7947,0.8973,24.28,86,100,6.17,GH,Mon Jul 22 18:49:54 2024
500,chardara,41.2547,67.9692,25.77,38,1,1.56,KZ,Mon Jul 22 18:49:56 2024
501,miri,4.4148,114.0089,27.08,94,20,2.06,MY,Mon Jul 22 18:49:57 2024
502,tolanaro,-25.0319,46.9987,21.04,88,20,2.06,MG,Mon Jul 22 18:49:58 2024
503,camargo,27.6667,-105.1667,30.13,32,63,6.0,MX,Mon Jul 22 18:50:00 2024
504,eastham,41.8301,-69.9739,25.0,81,0,3.6,US,Mon Jul 22 18:50:01 2024
505,fort bragg,35.139,-79.006,26.22,91,20,3.09,US,Mon Jul 22 18:50:06 2024
506,valdivia,-39.8142,-73.2459,6.05,98,49,1.24,CL,Mon Jul 22 18:50:09 2024
507,labrador city,52.9463,-66.9114,11.77,65,75,17.43,CA,Mon Jul 22 18:50:11 2024
508,kidal,18.4411,1.4078,29.01,57,95,4.01,ML,Mon Jul 22 18:50:12 2024
509,rikaze,29.25,88.8833,11.35,86,100,2.21,CN,Mon Jul 22 18:50:14 2024
510,colby,39.3958,-101.0524,27.03,48,0,4.12,US,Mon Jul 22 18:50:15 2024
511,erenhot,43.6475,111.9767,25.46,49,1,5.17,CN,Mon Jul 22 18:50:16 2024
512,angaur state,6.906,134.13,27.97,77,100,3.13,PW,Mon Jul 22 18:50:18 2024
513,rio preto da eva,-2.6994,-59.6997,25.54,65,88,1.38,BR,Mon Jul 22 18:50:19 2024
514,hadibu,12.65,54.0333,26.01,80,100,11.66,YE,Mon Jul 22 18:50:21 2024
515,salaya,22.3167,69.6,27.48,91,100,6.04,IN,Mon Jul 22 18:50:22 2024
516,palopo,-2.9996,120.1921,26.84,77,37,1.03,ID,Mon Jul 22 18:50:24 2024
517,gorazde,43.6669,18.9764,17.36,91,0,0.61,BA,Mon Jul 22 18:50:25 2024
518,ugoofaaru,5.6667,73.0,28.15,78,100,2.65,MV,Mon Jul 22 18:50:27 2024
519,vorgashor,67.5833,63.95,9.65,78,100,1.7,RU,Mon Jul 22 18:50:28 2024
520,poltavka,54.3663,71.7632,18.02,96,88,2.96,RU,Mon Jul 22 18:50:30 2024
521,darwin,-12.4611,130.8418,24.99,40,0,2.57,AU,Mon Jul 22 18:45:03 2024
522,vanimo,-2.6741,141.3028,27.04,88,52,1.45,PG,Mon Jul 22 18:50:33 2024
523,palencia,42.4167,-4.5,18.29,70,6,3.13,ES,Mon Jul 22 18:50:34 2024
524,albion,42.2431,-84.753,23.02,82,0,0.0,US,Mon Jul 22 18:50:36 2024
525,chelyabinsk,55.1544,61.4297,15.05,100,100,5.0,RU,Mon Jul 22 18:50:37 2024
526,gaigeturi,33.4644,126.3183,31.03,70,75,2.57,KR,Mon Jul 22 18:50:39 2024
527,kansk,56.2017,95.7175,18.3,93,100,4.17,RU,Mon Jul 22 18:50:40 2024
528,kohima,25.6667,94.1167,20.31,97,100,0.91,IN,Mon Jul 22 18:50:42 2024
529,naracoorte,-36.9579,140.7383,12.74,57,100,6.22,AU,Mon Jul 22 18:50:43 2024
530,assab,13.0092,42.7394,32.97,59,95,3.5,ER,Mon Jul 22 18:50:45 2024
531,port shepstone,-30.7414,30.455,14.18,76,5,2.67,ZA,Mon Jul 22 18:50:46 2024
532,urangan,-25.3,152.9,19.08,64,2,5.43,AU,Mon Jul 22 18:50:48 2024
533,bacalar,18.6667,-88.3833,26.47,92,100,2.9,MX,Mon Jul 22 18:50:49 2024
534,galle,6.0367,80.217,27.74,82,78,0.45,LK,Mon Jul 22 18:50:51 2024
535,yako,12.9667,-2.2667,24.1,82,42,3.9,BF,Mon Jul 22 18:50:52 2024
536,yemel'yanovo,56.1681,92.6767,18.45,100,0,3.0,RU,Mon Jul 22 18:50:54 2024
537,timmins,48.4669,-81.3331,13.9,88,100,3.6,CA,Mon Jul 22 18:50:55 2024
538,elliot lake,46.3834,-82.6331,15.94,76,80,1.68,CA,Mon Jul 22 18:50:57 2024
539,shingu,33.7333,135.9833,31.9,58,0,3.04,JP,Mon Jul 22 18:50:58 2024
540,belel,7.05,14.4333,14.73,92,100,1.32,CM,Mon Jul 22 18:51:00 2024
541,governador dix sept rosado,-5.4589,-37.5208,27.91,62,0,6.9,BR,Mon Jul 22 18:51:01 2024
542,quelimane,-17.8786,36.8883,17.97,88,0,0.0,MZ,Mon Jul 22 18:51:03 2024
543,narasannapeta,18.4167,84.05,24.62,95,100,5.06,IN,Mon Jul 22 18:51:04 2024
544,kolpashevo,58.3131,82.9089,15.55,82,68,1.32,RU,Mon Jul 22 18:51:05 2024
545,dalandzadgad,43.5708,104.425,27.27,22,100,8.94,MN,Mon Jul 22 18:51:07 2024
546,liuduzhai,27.3661,110.935,31.31,62,0,1.5,CN,Mon Jul 22 18:51:08 2024
547,villa huidobro,-34.8383,-64.5869,10.98,68,5,3.83,AR,Mon Jul 22 18:51:10 2024
548,dwarka,22.2394,68.9678,27.93,89,100,8.38,IN,Mon Jul 22 18:51:11 2024
549,egilsstadir,65.2653,-14.3948,9.95,71,40,4.63,IS,Mon Jul 22 18:51:14 2024
550,muang phonsavan,19.45,103.2167,20.43,97,100,0.49,LA,Mon Jul 22 18:51:15 2024
551,kuanda,56.3161,116.0806,23.92,68,100,0.4,RU,Mon Jul 22 18:51:17 2024
552,agat village,13.3886,144.6585,31.52,79,40,5.14,GU,Mon Jul 22 18:51:18 2024
553,wakimachi,34.0667,134.15,31.68,53,15,2.03,JP,Mon Jul 22 18:51:20 2024
554,tshela,-4.9833,12.9333,18.37,98,32,0.61,CD,Mon Jul 22 18:51:21 2024
555,nuriootpa,-34.4833,139.0,13.85,44,100,6.55,AU,Mon Jul 22 18:51:23 2024
556,pangoa,-12.1167,-73.0,21.12,69,0,1.45,PE,Mon Jul 22 18:51:24 2024
557,jalal-abad,40.9333,73.0,24.8,30,100,2.01,KG,Mon Jul 22 18:51:26 2024
558,saudarkrokur,65.7461,-19.6394,8.02,92,100,5.01,IS,Mon Jul 22 18:51:27 2024
559,casas grandes,30.3667,-107.95,25.29,48,73,2.46,MX,Mon Jul 22 18:51:29 2024
560,sarupathar,26.1984,93.8094,27.11,83,100,1.04,IN,Mon Jul 22 18:51:30 2024
561,sorsk,54.0033,90.2467,16.37,85,54,1.6,RU,Mon Jul 22 18:51:32 2024
562,basco,20.4487,121.9702,29.12,83,100,11.01,PH,Mon Jul 22 18:51:33 2024
563,nagqu,31.5,92.0,8.24,90,100,0.75,CN,Mon Jul 22 18:51:35 2024
564,agacoren,38.8748,33.9167,20.55,57,0,1.93,TR,Mon Jul 22 18:51:36 2024
565,baker city,44.7749,-117.8344,26.47,60,99,3.48,US,Mon Jul 22 18:49:39 2024
566,nzega,-2.479,29.5564,14.06,73,100,1.94,RW,Mon Jul 22 18:51:41 2024
567,bafang,5.1563,10.1788,17.61,98,100,0.49,CM,Mon Jul 22 18:51:42 2024
568,binzhou,37.3667,118.0167,30.2,71,67,5.31,CN,Mon Jul 22 18:51:44 2024
569,marquette,46.5333,-87.6335,17.24,75,100,2.24,US,Mon Jul 22 18:51:45 2024
570,birjand,32.8663,59.2211,22.26,21,0,2.06,IR,Mon Jul 22 18:51:46 2024
571,namibe,-15.1961,12.1522,14.86,90,13,3.11,AO,Mon Jul 22 18:51:48 2024
